City_ID,City,Lat,Lng,Max Temp,Humidity,Cloudiness,Wind Speed,Country,Date
0,pevek,69.7008,170.3133,-0.4,86,58,10.89,RU,1681507225
1,busselton,-33.65,115.3333,58.14,69,95,8.77,AU,1681507225
2,hermanus,-34.4187,19.2345,57.76,64,32,5.95,ZA,1681507226
3,maldonado,-34.6667,-54.9167,58.23,61,9,7.87,UY,1681507226
4,punta arenas,-53.15,-70.9167,44.71,61,75,4.61,CL,1681507014
5,port elizabeth,-33.918,25.5701,60.31,74,0,19.57,ZA,1681507226
6,qaanaaq,77.484,-69.3632,12.58,75,17,2.73,GL,1681507227
7,juneau,58.3019,-134.4197,46.42,74,100,11.5,US,1681507227
8,sao francisco,-15.9486,-44.8644,82.24,55,100,6.38,BR,1681507228
9,saint-augustin,51.226,-58.6502,41.76,52,74,22.91,CA,1681507228
10,kapaa,22.0752,-159.319,77.18,76,75,17.27,US,1681506976
11,nieuw amsterdam,5.8833,-55.0833,86.16,74,20,9.22,SR,1681507228
12,cape town,-33.9258,18.4232,60.91,67,0,16.11,ZA,1681507119
13,guerrero negro,27.9769,-114.0611,63.72,48,23,15.99,MX,1681507229
14,bambous virieux,-20.3428,57.7575,77.25,88,40,2.3,MU,1681507229
15,lorengau,-2.0226,147.2712,82.4,79,97,10.63,PG,1681507229
16,kitimat,54.0524,-128.6534,47.91,63,100,2.91,CA,1681507230
17,rikitea,-23.1203,-134.9692,78.78,72,11,11.9,PF,1681507230
18,mataura,-46.1927,168.8643,52.48,81,4,3.02,NZ,1681507231
19,nanortalik,60.1432,-45.2371,36.12,76,100,4.68,GL,1681507231
20,ancud,-41.8697,-73.8203,55.18,68,0,4.43,CL,1681507036
21,nicolas bravo,18.45,-88.9167,96.13,33,1,9.93,MX,1681507231
22,tiksi,71.6872,128.8694,6.26,96,25,6.46,RU,1681507231
23,salalah,17.0151,54.0924,84.29,74,20,5.75,OM,1681507232
24,butaritari,3.0707,172.7902,82.24,77,26,11.61,KI,1681507232
25,scotts valley,37.0511,-122.0147,68.5,59,9,11.01,US,1681507007
26,ushuaia,-54.8,-68.3,44.26,65,75,20.71,AR,1681507173
27,nikolskoye,59.7035,30.7861,37.29,55,100,7.74,RU,1681507232
28,saint-louis,16.3333,-15.0,94.78,26,4,18.86,SN,1681507232
29,upernavik,72.7868,-56.1549,14.56,92,93,9.48,GL,1681507233
30,ponta do sol,32.6667,-17.1,63.23,64,1,6.44,PT,1681507233
31,tuktoyaktuk,69.4541,-133.0374,-2.2,84,20,8.05,CA,1681507233
32,bluff,-46.6,168.3333,52.81,81,2,7.02,NZ,1681507233
33,jamestown,42.097,-79.2353,80.42,29,0,12.66,US,1681507234
34,bengkulu,-3.8004,102.2655,76.01,89,89,3.87,ID,1681507234
35,cabo san lucas,22.8909,-109.9124,87.19,56,75,19.57,MX,1681507234
36,clyde river,70.4692,-68.5914,10.63,72,100,6.91,CA,1681507234
37,cayenne,4.9333,-52.3333,80.64,83,75,8.05,GF,1681507234
38,saskylakh,71.9167,114.0833,20.53,92,63,16.08,RU,1681507235
39,dikson,73.5069,80.5464,-7.4,97,74,11.01,RU,1681507235
40,alofi,-19.0595,-169.9187,80.49,69,79,16.11,NU,1681507235
41,ust-kuyga,70.0167,135.6,1.72,95,59,1.79,RU,1681507235
42,plettenberg bay,-34.0527,23.3716,55.56,71,2,7.47,ZA,1681507235
43,port hueneme,34.1478,-119.1951,68.45,70,40,9.22,US,1681507235
44,tautira,-17.7333,-149.15,79.99,63,37,3.27,PF,1681507236
45,longyearbyen,78.2186,15.6401,35.44,87,40,0.0,SJ,1681507236
46,santa rosa,14.3122,121.1114,78.12,96,74,3.8,PH,1681507188
47,khani,41.9563,42.9566,40.57,81,41,5.35,GE,1681507236
48,barrow,71.2906,-156.7887,-5.78,77,0,11.5,US,1681507236
49,sayyan,15.1718,44.3244,62.19,52,2,11.74,YE,1681507236
50,hilo,19.7297,-155.09,83.28,61,0,10.36,US,1681507196
51,swellendam,-34.0226,20.4417,55.42,65,3,2.98,ZA,1681507236
52,kostino,58.9097,53.2691,21.38,77,2,5.95,RU,1681507237
53,christchurch,-43.5333,172.6333,57.9,75,100,6.91,NZ,1681507206
54,winsum,53.33,6.5208,49.98,77,72,11.63,NL,1681507040
55,sambava,-14.2667,50.1667,76.15,88,37,6.35,MG,1681507237
56,ribeira grande,38.5167,-28.7,63.77,91,98,18.99,PT,1681507237
57,pangnirtung,66.1451,-65.7125,19.4,79,75,6.91,CA,1681507237
58,yellowknife,62.456,-114.3525,34.32,64,75,12.66,CA,1681507238
59,sitka,57.0531,-135.33,46.29,53,75,13.8,US,1681507238
60,nishihara,26.1842,127.7558,75.25,94,100,13.8,JP,1681507238
61,georgetown,5.4112,100.3354,85.95,81,20,4.61,MY,1681507238
62,inyonga,-6.7167,32.0667,64.26,96,94,3.27,TZ,1681507238
63,tasiilaq,65.6145,-37.6368,33.96,86,18,3.96,GL,1681507239
64,east london,-33.0153,27.9116,59.43,63,15,10.92,ZA,1681507189
65,puerto madero,14.7208,-92.4215,91.6,49,40,17.27,MX,1681507239
66,new norfolk,-42.7826,147.0587,51.3,97,80,1.92,AU,1681507239
67,bethel,41.3712,-73.414,90.64,31,0,10.36,US,1681506957
68,gorodets,56.6514,43.475,29.62,44,0,12.06,RU,1681507239
69,lompoc,34.6391,-120.4579,67.01,65,20,20.0,US,1681507240
70,kizukuri,40.8061,140.3861,46.94,85,99,2.62,JP,1681507240
71,vaini,-21.2,-175.2,82.56,74,75,12.66,TO,1681507240
72,kirovskiy,45.0917,133.5136,33.53,64,1,5.01,RU,1681507240
73,fomboni,-12.28,43.7425,83.12,67,1,4.25,KM,1681507240
74,boguchany,58.3814,97.4531,15.22,86,85,6.29,RU,1681507240
75,shushtar,32.0455,48.8567,66.76,42,2,6.87,IR,1681507240
76,ulagan,50.6321,87.9563,32.99,97,100,3.58,RU,1681507240
77,aklavik,68.2191,-135.0107,6.8,66,75,8.05,CA,1681507241
78,prince albert,53.2001,-105.7677,46.35,53,75,18.41,CA,1681507005
79,saint-ambroise,48.5501,-71.3324,49.59,45,21,6.24,CA,1681507241
80,bathsheba,13.2167,-59.5167,81.21,69,40,17.27,BB,1681507241
81,hithadhoo,-0.6,73.0833,84.11,71,98,12.1,MV,1681507241
82,sao joao da barra,-21.6403,-41.0511,82.49,90,28,10.78,BR,1681507241
83,yining,29.0361,114.5636,61.68,91,47,1.54,CN,1681507241
84,manbij,36.5281,37.9549,53.62,71,9,3.22,SY,1681507242
85,mazagao,-0.115,-51.2894,86.05,78,35,5.46,BR,1681507242
86,moshupa,-24.7782,25.4155,66.04,25,3,7.63,BW,1681507242
87,puerto ayora,-0.7393,-90.3518,89.56,89,79,10.0,EC,1681507242
88,mar del plata,-38.0023,-57.5575,60.1,66,0,4.61,AR,1681507242
89,marsh harbour,26.5412,-77.0636,78.06,77,68,11.12,BS,1681507242
90,sault sainte marie,46.5168,-84.3333,70.36,41,0,9.22,CA,1681507190
91,mae ramat,16.984,98.5166,71.17,73,87,0.67,TH,1681507243
92,mount gambier,-37.8333,140.7667,58.24,91,100,11.79,AU,1681507243
93,seoul,37.5683,126.9778,54.97,88,75,3.44,KR,1681507243
94,japura,-0.3167,102.35,73.76,99,85,1.05,ID,1681507243
95,amudat,1.95,34.95,71.11,65,84,6.76,UG,1681507243
96,wasilla,61.5814,-149.4394,41.02,65,0,5.75,US,1681507243
97,weligama,5.9667,80.4167,77.58,86,15,2.24,LK,1681507243
98,ekibastuz,51.6667,75.3667,23.74,95,100,21.5,KZ,1681507243
99,panaba,21.2833,-88.2667,99.32,28,38,12.3,MX,1681507244
100,atuona,-9.8,-139.0333,79.54,72,9,3.51,PF,1681507244
101,pietarsaari,63.65,22.6833,30.99,43,7,6.67,FI,1681507244
102,hobart,-42.8794,147.3294,51.66,87,75,3.44,AU,1681507244
103,cidreira,-30.1811,-50.2056,66.24,74,100,11.07,BR,1681507244
104,codrington,-38.2667,141.9667,61.12,74,100,22.66,AU,1681507244
105,saint-philippe,-21.3585,55.7679,76.59,83,99,8.3,RE,1681507244
106,killin,33.6123,-91.7412,80.69,39,20,8.05,US,1681507244
107,luderitz,-26.6481,15.1594,68.29,46,0,18.21,NA,1681507245
108,kodiak,57.79,-152.4072,38.71,56,20,11.5,US,1681507024
109,weymouth,42.2209,-70.9398,84.92,54,100,17.27,US,1681507010
110,esperance,-33.8667,121.9,56.77,72,98,23.42,AU,1681507245
111,kropotkin,45.4375,40.5756,50.9,64,100,20.09,RU,1681507117
112,mehamn,71.0357,27.8492,31.91,64,0,6.91,NO,1681507245
113,korla,41.7597,86.1469,59.23,26,100,5.53,CN,1681507245
114,masallatah,32.6167,14.0,55.9,67,27,6.78,LY,1681507113
115,hasaki,35.7333,140.8333,60.22,71,100,12.97,JP,1681507245
116,maputo,-25.9653,32.5892,74.88,71,40,16.11,MZ,1681507246
117,chokurdakh,70.6333,147.9167,10.11,94,100,1.32,RU,1681507246
118,lagoa,39.05,-27.9833,62.17,80,35,12.3,PT,1681507246
119,arraial do cabo,-22.9661,-42.0278,78.66,94,75,3.44,BR,1681507246
120,launceston,-41.45,147.1667,54.34,92,40,5.75,AU,1681507246
121,hakkari,37.5833,44.1667,37.18,75,75,3.44,TR,1681507246
122,naco,31.3347,-109.9483,73.42,21,1,24.09,MX,1681507246
123,cockburn town,21.4612,-71.1419,80.56,69,75,11.5,TC,1681507246
124,berlevag,70.8578,29.0864,31.95,55,0,8.05,NO,1681507247
125,touho,-20.7833,165.2333,76.93,82,100,10.47,NC,1681507247
126,mattru,7.6244,-11.8332,81.12,77,58,4.56,SL,1681507247
127,ulaanbaatar,47.9077,106.8832,17.73,67,0,0.0,MN,1681507122
128,avarua,-21.2078,-159.775,78.85,73,75,2.3,CK,1681507247
129,tombouctou,20.0,-3.0,83.57,8,2,11.12,ML,1681507247
130,chatrapur,19.35,84.9833,82.02,60,36,8.93,IN,1681507248
131,buka,40.8108,69.1986,68.9,53,100,3.51,UZ,1681507248
132,kahului,20.8947,-156.47,80.62,63,20,19.57,US,1681507142
133,cavalcante,-13.7975,-47.4583,76.08,73,99,2.48,BR,1681507248
134,kuusamo,65.9667,29.1833,21.24,49,0,1.14,FI,1681507248
135,albany,42.6001,-73.9662,86.63,26,88,1.5,US,1681507150
136,chimbote,-9.0853,-78.5783,80.82,72,88,13.6,PE,1681507248
137,norman wells,65.282,-126.8329,12.24,73,100,8.05,CA,1681507248
138,kurmanayevka,52.5093,52.0675,29.59,81,100,20.85,RU,1681507249
139,khatanga,71.9667,102.5,0.7,97,100,5.75,RU,1681507249
140,airai,-8.9266,125.4092,60.19,94,84,1.52,TL,1681507249
141,madimba,-10.4,40.3333,77.02,86,85,5.23,TZ,1681507249
142,ojhar,20.1,73.9333,80.22,35,95,3.83,IN,1681507249
143,avera,33.194,-82.5271,74.37,67,94,9.6,US,1681507249
144,salvador,13.8333,-88.9167,87.04,36,94,10.63,SV,1681507249
145,port alfred,-33.5906,26.891,58.17,78,33,7.0,ZA,1681507250
146,bairiki,1.3292,172.9752,84.2,79,75,6.91,KI,1681507250
147,mahebourg,-20.4081,57.7,77.29,88,40,2.3,MU,1681507250
148,victoria,22.2855,114.1577,77.2,90,58,6.73,HK,1681507234
149,srivardhan,18.0333,73.0167,81.5,71,94,4.25,IN,1681507250
150,kansanshi,-12.0951,26.4273,62.28,97,100,3.6,ZM,1681507250
151,vostok,46.4856,135.8833,24.28,79,11,2.89,RU,1681507250
152,north myrtle beach,33.816,-78.68,79.34,79,0,12.66,US,1681507250
153,west bay,19.3667,-81.4167,86.07,72,20,8.05,KY,1681507218
154,sao jose da coroa grande,-8.8978,-35.1478,78.62,74,94,8.08,BR,1681507251
155,linjiang,41.8069,126.9078,46.08,87,100,3.85,CN,1681507251
156,saldanha,-33.0117,17.9442,59.0,71,0,19.91,ZA,1681507251
157,sol-iletsk,51.1631,54.9918,25.2,94,100,24.7,RU,1681507251
158,dongying,37.4564,118.4856,53.04,17,0,6.46,CN,1681507251
159,deputatskiy,69.3,139.9,9.09,94,100,0.63,RU,1681507251
160,peshkovo,47.0187,39.3885,45.88,90,100,8.03,RU,1681507251
161,ambon,-3.6954,128.1814,75.34,94,40,4.61,ID,1681507252
162,maryville,35.7565,-83.9705,66.49,92,100,11.5,US,1681507252
163,coquimbo,-29.9533,-71.3436,65.93,68,0,12.66,CL,1681507038
164,roald,62.5833,6.1333,47.91,81,0,4.61,NO,1681507252
165,mayumba,-3.432,10.6554,80.29,87,100,1.95,GA,1681507035
166,gerash,27.6652,54.1371,64.54,17,91,4.36,IR,1681507252
167,sao filipe,14.8961,-24.4956,75.27,77,7,7.11,CV,1681507252
168,thompson,55.7435,-97.8558,46.56,39,100,3.44,CA,1681507253
169,harper,4.375,-7.7169,81.64,83,100,7.67,LR,1681507253
170,kasongo-lunda,-6.4667,16.8167,71.71,96,71,1.7,CD,1681507253
171,marsa matruh,31.3525,27.2453,66.6,62,98,14.23,EG,1681507253
172,roma,43.2128,-75.4557,84.72,18,0,3.44,US,1681507253
173,portland,45.5234,-122.6762,61.56,49,20,5.99,US,1681507237
174,kloulklubed,7.0419,134.2556,77.5,70,84,12.73,PW,1681507254
175,tulsipur,28.131,82.2973,74.23,20,100,6.13,NP,1681507254
176,roslavl,53.9528,32.8639,41.85,47,100,11.61,RU,1681507254
177,ewa beach,21.3156,-158.0072,84.15,58,20,11.5,US,1681507254
178,ola,59.5833,151.2833,23.14,84,100,17.34,RU,1681507254
179,ahuimanu,21.4447,-157.8378,83.91,67,20,11.5,US,1681507254
180,itaituba,-4.2761,-55.9836,87.96,74,75,5.75,BR,1681507186
181,dudinka,69.4058,86.1778,-12.39,99,100,5.7,RU,1681507254
182,taseyevo,57.2169,94.8978,13.23,87,97,8.75,RU,1681507255
183,nuuk,64.1835,-51.7216,38.01,70,20,11.5,GL,1681507255
184,lulea,65.5842,22.1547,23.07,74,0,2.3,SE,1681507134
185,koroni,36.8,21.95,62.08,90,100,4.63,GR,1681507255
186,tommot,58.9564,126.2925,13.5,97,100,1.99,RU,1681507255
187,naze,28.3667,129.4833,68.92,93,99,12.77,JP,1681507255
188,cherskiy,68.75,161.3,9.97,77,57,10.96,RU,1681507255
189,borova,50.1763,30.1043,47.34,93,100,10.47,UA,1681507255
190,acari,-15.4311,-74.6158,79.12,62,85,9.66,PE,1681507256
191,dalvik,65.9702,-18.5286,35.53,97,100,1.03,IS,1681507256
192,bredasdorp,-34.5322,20.0403,55.27,63,11,1.83,ZA,1681507256
193,castro,-24.7911,-50.0119,63.21,96,45,1.9,BR,1681507256
194,ahipara,-35.1667,173.1667,66.4,74,100,17.6,NZ,1681507256
195,pisco,-13.7,-76.2167,81.01,61,0,20.71,PE,1681507256
196,lazaro cardenas,17.9583,-102.2,85.12,48,16,11.07,MX,1681507256
197,kachiry,53.0675,76.1036,25.02,61,100,19.17,KZ,1681507222
198,yairipok,24.6667,94.0667,63.32,42,54,1.14,IN,1681507257
199,chany,55.3121,76.7647,19.58,67,94,15.23,RU,1681507257
200,hambantota,6.1241,81.1185,78.87,83,36,5.41,LK,1681507257
201,humberto de campos,-2.5983,-43.4611,77.86,89,57,6.02,BR,1681507257
202,tomatlan,19.9333,-105.25,93.22,21,71,13.27,MX,1681507258
203,nouadhibou,20.931,-17.0347,69.78,83,0,10.36,MR,1681507258
204,axim,4.8699,-2.2405,81.68,83,100,9.35,GH,1681507258
205,kosh-agach,50.0,88.6667,24.73,96,100,2.59,RU,1681507258
206,fairbanks,64.8378,-147.7164,33.76,52,40,0.0,US,1681507122
207,san juan bautista,-14.0108,-75.7358,87.33,42,98,10.27,PE,1681507258
208,camargo,27.6667,-105.1667,83.46,11,59,28.7,MX,1681507258
209,kyenjojo,0.6328,30.6214,63.46,98,100,2.06,UG,1681507259
210,saint george,37.1041,-113.5841,68.43,17,0,11.5,US,1681507259
211,bac lieu,9.285,105.7244,81.14,81,9,5.73,VN,1681507259
212,haines junction,60.7522,-137.5108,40.95,42,100,6.91,CA,1681507259
213,galle,6.0367,80.217,79.21,81,21,1.23,LK,1681506994
214,teyateyaneng,-29.1472,27.7489,46.17,45,6,4.79,LS,1681507259
215,eureka,40.8021,-124.1637,65.75,70,36,5.01,US,1681507259
216,sirsa,29.5333,75.0167,82.56,14,0,4.03,IN,1681507260
217,geraldton,-28.7667,114.6,57.61,67,75,6.91,AU,1681507159
218,lebu,-37.6167,-73.65,56.55,79,1,15.26,CL,1681507030
219,havelock,34.8791,-76.9013,78.75,79,40,8.05,US,1681507260
220,manikpur,25.0667,81.1167,87.84,18,100,3.83,IN,1681507154
221,bima,-8.4667,118.7167,75.6,93,100,1.16,ID,1681507260
222,davenport,41.5236,-90.5776,84.07,28,0,12.66,US,1681507084
223,rawson,-43.3002,-65.1023,61.95,50,100,9.51,AR,1681507261
224,iqaluit,63.7506,-68.5145,19.13,79,40,20.71,CA,1681507261
225,grindavik,63.8424,-22.4338,44.55,87,0,8.05,IS,1681507261
226,pozega,45.3403,17.6853,45.77,94,69,3.67,HR,1681507261
227,saurimo,-9.6608,20.3916,67.23,85,51,4.12,AO,1681507262
228,stiubieni,47.9667,26.7833,58.87,80,80,18.1,RO,1681507262
229,qiongshan,20.0058,110.3542,76.98,94,75,6.71,CN,1681507262
230,shakawe,-18.3667,21.85,70.03,38,4,4.85,BW,1681507262
231,aripuana,-9.1667,-60.6333,79.43,92,100,0.36,BR,1681507263
232,saint-pierre,-21.3393,55.4781,76.68,73,20,5.75,RE,1681507263
233,palimbang,6.2106,124.1894,78.49,83,5,3.13,PH,1681507264
234,ossora,59.2353,163.0719,22.53,96,100,16.51,RU,1681507264
235,yulara,-25.2406,130.9889,64.26,78,100,13.02,AU,1681507264
236,catamarca,-28.4696,-65.7852,67.77,60,11,3.0,AR,1681507246
237,kavaratti,10.5669,72.642,83.59,75,76,7.49,IN,1681507265
238,washougal,45.5826,-122.3534,61.41,47,0,5.75,US,1681507265
239,zemio,5.0314,25.1361,71.31,92,97,2.37,CF,1681507265
240,ostrovnoy,68.0531,39.5131,20.39,80,30,10.31,RU,1681507266
241,hofn,64.2539,-15.2082,42.31,74,89,2.68,IS,1681507266
242,morgan city,29.6994,-91.2068,81.01,49,38,8.41,US,1681507266
243,bambanglipuro,-7.95,110.2833,75.69,85,90,1.97,ID,1681507266
244,ozernovskiy,51.5,156.5167,34.38,85,70,10.74,RU,1681507267
245,polis,35.0367,32.4264,58.82,93,49,5.06,CY,1681507267
246,itacarambi,-15.1022,-44.0919,85.23,36,95,4.38,BR,1681507268
247,ulladulla,-35.35,150.4667,54.77,87,39,5.44,AU,1681507268
248,sovetskiy,61.3614,63.5842,11.39,96,13,4.97,RU,1681507268
249,buala,-8.145,159.5921,79.83,84,97,14.83,SB,1681507268
250,wilkie,52.4168,-108.7014,48.58,60,13,6.91,CA,1681507269
251,mahajanga,-15.7167,46.3167,77.02,94,20,3.44,MG,1681507269
252,bontang,0.1333,117.5,77.67,89,99,2.13,ID,1681507269
253,tura,25.5198,90.2201,78.8,22,100,3.13,IN,1681507269
254,yumen,40.2833,97.2,50.4,20,100,13.67,CN,1681507270
255,la ronge,55.1001,-105.2842,46.62,42,75,9.22,CA,1681507270
256,champerico,14.3,-91.9167,95.54,59,1,13.11,GT,1681507270
257,ljutomer,46.5208,16.1975,44.74,95,100,5.12,SI,1681507271
258,umea,63.8284,20.2597,31.93,59,0,6.91,SE,1681507271
259,safranbolu,41.2508,32.6942,52.93,65,4,1.88,TR,1681507271
260,rawlins,41.7911,-107.2387,35.49,69,100,13.8,US,1681507271
261,san patricio,28.017,-97.5169,85.15,62,95,14.43,US,1681507272
262,katakwi,1.8911,33.9661,69.08,69,70,3.33,UG,1681507272
263,honningsvag,70.9821,25.9704,35.35,51,0,20.71,NO,1681507272
264,port hardy,50.6996,-127.4199,51.98,58,75,9.22,CA,1681507272
265,saint-joseph,-21.3667,55.6167,75.58,83,83,4.47,RE,1681507273
266,port-cartier,50.0334,-66.8654,46.51,63,65,10.89,CA,1681507273
267,ingraj bazar,25.0,88.15,83.82,21,100,1.66,IN,1681507273
268,hanko,59.8333,22.95,38.98,69,54,37.0,FI,1681507032
269,port blair,11.6667,92.75,80.04,77,82,5.86,IN,1681507273
270,kautokeino,69.0125,23.0412,20.43,96,9,11.61,NO,1681507274
271,ulaangom,49.9811,92.0667,26.42,68,100,0.43,MN,1681507274
272,temyasovo,52.9933,58.1014,18.91,65,100,23.94,RU,1681507274
273,leningradskiy,69.3833,178.4167,0.7,84,24,4.03,RU,1681507275
274,ust-tsilma,65.441,52.1498,19.99,93,33,7.49,RU,1681507276
275,port lincoln,-34.7333,135.8667,60.03,67,41,15.26,AU,1681507276
276,atambua,-9.1061,124.8925,73.27,89,98,0.85,ID,1681507276
277,gamba,-2.65,10.0,79.95,87,100,4.61,GA,1681507277
278,petropavlovsk-kamchatskiy,53.0452,158.6483,28.99,93,75,4.47,RU,1681507277
279,kidal,18.4411,1.4078,88.7,9,49,11.74,ML,1681507277
280,brae,60.3964,-1.353,43.99,86,37,15.75,GB,1681507277
281,hokitika,-42.7167,170.9667,56.55,62,95,5.14,NZ,1681507277
282,totness,5.8833,-56.3167,81.57,77,64,11.52,SR,1681507278
283,coihaique,-45.5752,-72.0662,57.81,59,0,3.36,CL,1681507047
284,severo-kurilsk,50.6789,156.125,34.05,99,100,9.44,RU,1681507279
285,aranos,-24.1333,19.1167,64.47,35,8,12.44,NA,1681507279
286,shenkursk,62.1091,42.896,14.04,96,5,1.79,RU,1681507279
287,kavieng,-2.5744,150.7967,82.02,79,99,7.9,PG,1681507279
288,luwuk,-0.9516,122.7875,78.53,82,99,2.89,ID,1681507280
289,sheltozero,61.3667,35.3667,24.35,90,77,6.82,RU,1681507280
290,eyl,7.9803,49.8164,82.81,76,73,13.96,SO,1681507281
291,dongsheng,39.8161,109.9776,39.72,40,79,10.65,CN,1681507281
292,jiaohe,43.7286,127.3447,37.89,47,49,4.5,CN,1681507281
293,kaitangata,-46.2817,169.8464,48.85,86,8,5.77,NZ,1681507281
294,aliwal north,-30.6937,26.7114,45.43,54,0,7.78,ZA,1681507282
295,hatillo,18.4863,-66.8254,85.08,76,13,10.0,PR,1681507282
296,vagur,61.4732,-6.8119,44.19,83,100,16.2,FO,1681507282
297,severobaykalsk,55.65,109.3167,12.33,80,23,5.91,RU,1681507282
298,xai-xai,-25.0519,33.6442,73.83,82,52,22.17,MZ,1681507283
299,palmer,42.1584,-72.3287,92.8,22,75,3.44,US,1681507283
300,sawakin,19.1059,37.3321,75.58,66,0,7.4,SD,1681507283
301,colonia,50.9333,6.95,52.86,59,0,5.75,DE,1681507283
302,havre-saint-pierre,50.2334,-63.5986,44.96,39,0,12.66,CA,1681507284
303,caravelas,-17.7125,-39.2481,78.71,80,44,9.55,BR,1681507156
304,merauke,-8.4667,140.3333,75.45,92,88,4.94,ID,1681507284
305,muzhi,65.3667,64.6667,21.43,76,100,20.4,RU,1681507284
306,cortez,37.3489,-108.5859,50.76,54,0,23.02,US,1681507284
307,bourail,-21.5667,165.4833,74.95,86,100,1.83,NC,1681507284
308,san pedro,14.35,121.0167,77.36,96,75,2.3,PH,1681507284
309,alice springs,-23.7,133.8833,69.35,94,75,23.02,AU,1681507185
310,miles city,46.4083,-105.8406,43.77,49,100,13.8,US,1681507285
311,sur,22.5667,59.5289,88.36,43,69,4.92,OM,1681507285
312,pavlohrad,48.5167,35.8667,41.67,90,100,10.38,UA,1681507285
313,malibu,34.005,-118.8101,68.09,84,48,1.99,US,1681507286
314,abu kamal,34.4506,40.9171,64.36,39,0,8.03,SY,1681507286
315,najran,17.4924,44.1277,79.45,47,83,3.56,SA,1681507287
316,pringsewu,-5.3582,104.9744,73.35,97,100,2.91,ID,1681507287
317,juybar,36.6412,52.9124,58.68,68,1,5.73,IR,1681507287
318,coahuayana,18.7333,-103.6833,90.43,29,0,7.94,MX,1681507287
319,mayor pablo lagerenza,-19.9309,-60.7718,61.93,93,100,6.35,PY,1681507288
320,farafangana,-22.8167,47.8333,74.93,85,2,5.12,MG,1681507288
321,lazarev,52.225,141.5131,23.9,90,100,7.81,RU,1681507288
322,indramayu,-6.3264,108.32,78.98,82,98,2.55,ID,1681507289
323,kruisfontein,-34.0033,24.7314,57.88,71,7,10.49,ZA,1681507289
324,maragogi,-9.0122,-35.2225,78.48,73,100,8.14,BR,1681507290
325,nurota,40.5614,65.6886,59.27,75,60,7.54,UZ,1681507290
326,price,39.5994,-110.8107,51.06,22,20,10.36,US,1681507291
327,neryungri,56.6709,124.6491,2.71,99,73,2.15,RU,1681507291
328,rocha,-34.4833,-54.3333,55.15,63,10,7.9,UY,1681507052
329,ugoofaaru,5.6667,73.0,82.87,74,100,1.57,MV,1681507279
330,babu,24.4167,111.5167,67.32,93,54,4.21,CN,1681507292
331,aguimes,27.9054,-15.4461,63.66,72,40,18.41,ES,1681507292
332,port macquarie,-31.4333,152.9167,54.9,83,4,5.32,AU,1681507292
333,marzuq,14.4,46.4667,73.87,66,0,6.13,YE,1681507293
334,ranong,9.9658,98.6348,78.67,86,29,3.42,TH,1681507293
335,rosarito,32.3333,-117.0333,65.25,67,47,10.47,MX,1681507294
336,belaya gora,68.5333,146.4167,6.24,97,99,4.25,RU,1681507294
337,namie,37.4833,141.0,57.72,78,100,3.91,JP,1681507294
338,virginia beach,36.8529,-75.978,77.05,97,100,9.78,US,1681507068
339,hami,42.8,93.45,57.36,21,100,5.08,CN,1681507294
340,chuy,-33.6971,-53.4616,57.6,63,5,9.33,UY,1681507294
341,tessalit,20.1986,1.0114,85.53,9,20,8.41,ML,1681507294
342,puerto plata,19.7934,-70.6884,91.31,69,20,18.41,DO,1681507065
343,milkovo,54.7167,158.6167,27.66,93,100,2.77,RU,1681507295
344,flinders,-34.5833,150.8552,56.05,92,32,3.0,AU,1681507295
345,mundo novo,-11.8589,-40.4725,74.35,68,99,1.72,BR,1681507295
346,nioro,13.35,-15.75,91.31,25,20,5.41,GM,1681507295
347,atar,20.5169,-13.0499,92.05,25,2,3.67,MR,1681507295
348,acarau,-2.8856,-40.12,79.52,85,95,10.47,BR,1681507296
349,vardo,70.3705,31.1107,30.18,59,0,20.71,NO,1681507296
350,goure,13.9835,10.2704,82.18,11,48,8.68,NE,1681507296
351,graaff-reinet,-32.2522,24.5308,50.92,55,0,3.71,ZA,1681507296
352,san cristobal,7.7669,-72.225,75.38,46,97,1.36,VE,1681507084
353,obidos,-1.9175,-55.5181,80.76,86,85,2.89,BR,1681507296
354,narsaq,60.9167,-46.05,44.82,56,100,15.37,GL,1681507297
355,bonavista,48.6499,-53.1147,32.43,89,88,22.97,CA,1681507297
356,mandera,3.9366,41.867,88.61,39,87,10.42,KE,1681507297
357,huilong,31.8111,121.655,56.93,94,100,10.11,CN,1681507297
358,mahina,-17.5065,-149.489,85.77,62,75,10.36,PF,1681507082
359,kalmunai,7.4167,81.8167,78.03,89,65,6.58,LK,1681507297
360,kiruna,67.8557,20.2251,25.72,50,14,5.75,SE,1681507297
361,pundaguitan,6.3711,126.1689,81.0,79,25,2.66,PH,1681507298
362,port hedland,-20.3167,118.5667,73.45,53,57,14.97,AU,1681507161
363,novoagansk,61.9449,76.6625,2.91,96,64,8.95,RU,1681507298
364,santa maria,-29.6842,-53.8069,67.3,68,75,10.36,BR,1681507236
365,ndjole,-0.1783,10.7649,73.74,99,100,2.66,GA,1681507298
366,makakilo city,21.3469,-158.0858,82.72,58,20,11.5,US,1681507298
367,vanino,49.0869,140.2543,29.66,55,45,5.26,RU,1681507299
368,shimoda,34.6667,138.95,54.1,85,100,5.41,JP,1681507299
369,ouesso,1.6136,16.0517,71.33,92,82,2.77,CG,1681507299
370,komsomolskiy,40.4272,71.7189,65.12,59,70,9.22,UZ,1681507299
371,orange cove,36.6244,-119.3137,69.93,37,0,3.44,US,1681507299
372,bilibino,68.0546,166.4372,0.52,88,46,2.51,RU,1681507300
373,meulaboh,4.1363,96.1285,76.75,90,95,3.18,ID,1681507300
374,allanridge,-27.7543,26.6438,57.47,33,100,7.34,ZA,1681507300
375,torbay,47.6666,-52.7314,37.38,87,100,21.85,CA,1681507300
376,yabrud,33.9674,36.6574,48.69,42,30,3.24,SY,1681507300
377,kaeo,-35.1,173.7833,66.33,90,100,18.16,NZ,1681507300
378,poum,-20.2333,164.0167,77.31,81,100,9.86,NC,1681507301
379,turbat,26.0023,63.044,84.13,48,5,1.14,PK,1681507301
380,noumea,-22.2763,166.4572,78.01,99,100,5.97,NC,1681507301
381,tarakan,3.3,117.6333,78.3,94,40,3.44,ID,1681507301
382,saucillo,28.0167,-105.2833,84.51,11,60,31.23,MX,1681507301
383,rajsamand,25.0667,73.8833,79.02,28,0,7.92,IN,1681507301
384,ileza,61.0533,43.9002,20.5,91,5,2.77,RU,1681507302
385,dehloran,32.6941,47.2679,65.48,42,1,6.2,IR,1681507302
386,fethiye,36.6217,29.1164,57.07,78,51,4.7,TR,1681507302
387,cururupu,-1.8283,-44.8683,78.8,83,52,4.47,BR,1681507302
388,mount isa,-20.7333,139.5,62.37,72,86,0.0,AU,1681507302
389,plast,54.3691,60.8136,20.26,38,100,18.41,RU,1681507302
390,torit,4.4133,32.5678,77.52,54,66,2.35,SS,1681507302
391,rio gallegos,-51.6226,-69.2181,48.25,34,20,20.71,AR,1681507291
392,zyryanskoye,56.8306,86.6258,10.26,89,58,8.19,RU,1681507303
393,tuskegee,32.424,-85.6916,74.14,65,98,6.71,US,1681507303
394,amga,60.8953,131.9608,23.58,97,100,2.48,RU,1681507303
395,comodoro rivadavia,-45.8667,-67.5,53.46,54,0,5.75,AR,1681507303
396,piranshahr,36.701,45.1413,38.68,89,20,6.02,IR,1681507303
397,itoman,26.1247,127.6694,75.97,94,75,13.8,JP,1681507303
398,umm lajj,25.0213,37.2685,76.3,58,96,9.84,SA,1681507303
399,pacific grove,36.6177,-121.9166,64.38,68,0,12.66,US,1681507260
400,mitu,1.1983,-70.1733,80.22,80,99,1.95,CO,1681507304
401,caraballeda,10.6112,-66.8522,88.38,69,93,10.36,VE,1681507304
402,kieta,-6.2167,155.6333,79.66,83,100,5.28,PG,1681507304
403,bonaventure,48.0457,-65.4926,50.58,29,48,11.5,CA,1681507304
404,provideniya,64.3833,-173.3,9.3,71,0,5.35,RU,1681507304
405,sorland,67.667,12.6934,42.66,74,87,17.87,NO,1681507305
406,salym,60.0625,71.4789,4.1,94,9,4.88,RU,1681507305
407,qaqortoq,60.7167,-46.0333,37.98,58,100,13.76,GL,1681507305
408,mogok,22.9167,96.5,69.96,31,4,1.61,MM,1681507305
409,santa cruz,-17.8,-63.1667,71.65,83,75,17.27,BO,1681507305
410,baraboo,43.4711,-89.7443,82.54,33,82,12.46,US,1681507093
411,chabahar,25.2919,60.643,83.01,58,1,18.43,IR,1681507306
412,hobyo,5.3505,48.5268,84.2,74,26,12.44,SO,1681507306
413,kearney,40.6995,-99.0815,66.56,50,0,13.8,US,1681507092
414,novosysoyevka,44.235,133.3642,33.3,68,9,2.89,RU,1681507306
415,la concordia,13.1953,-86.1667,81.91,29,94,12.44,NI,1681507306
416,mitsamiouli,-11.3847,43.2844,81.1,74,6,8.19,KM,1681507307
417,sivaki,52.6333,126.75,27.41,88,11,3.58,RU,1681507307
418,acapulco,16.8634,-99.8901,87.62,58,75,10.36,MX,1681507210
419,tacoronte,28.4769,-16.4102,61.25,79,20,4.0,ES,1681507307
420,churapcha,62.0025,132.4325,20.44,96,100,3.44,RU,1681507307
421,praia,14.9215,-23.5087,75.74,78,27,11.5,CV,1681507308
422,monrovia,6.3005,-10.7969,81.43,85,93,7.65,LR,1681507308
423,weiser,44.251,-116.9693,53.8,45,72,5.01,US,1681507308
424,faanui,-16.4833,-151.75,80.74,72,13,7.94,PF,1681507308
425,ilulissat,69.2167,-51.1,32.02,74,20,8.05,GL,1681507308
426,dasoguz,41.8363,59.9666,55.35,62,0,11.5,TM,1681507308
427,carora,10.1755,-70.0827,92.01,34,100,8.03,VE,1681507308
428,barra do corda,-5.5,-45.25,76.87,89,100,2.39,BR,1681507309
429,varhaug,58.6147,5.6457,47.75,84,70,9.17,NO,1681507309
430,lasa,46.6166,10.7002,40.08,90,83,4.81,IT,1681507309
431,norton,-17.8833,30.7,60.98,38,0,6.02,ZW,1681507309
432,iralaya,15.0,-83.2333,83.62,64,100,8.97,HN,1681507095
433,yar-sale,66.8333,70.8333,11.55,97,100,0.56,RU,1681507309
434,luanda,-8.8368,13.2343,82.4,89,75,9.22,AO,1681507150
435,werda,-25.2667,23.2833,66.9,22,83,11.16,BW,1681507310
436,puerto del rosario,28.5004,-13.8627,65.95,77,20,18.41,ES,1681507310
437,riyadh,24.6877,46.7219,68.14,26,100,8.01,SA,1681507158
438,tromso,69.6496,18.957,37.42,52,0,5.75,NO,1681507310
439,udachnyy,66.4167,112.4,25.45,45,100,22.08,RU,1681507310
440,plesetsk,62.708,40.2916,19.18,95,5,1.86,RU,1681507311
441,havoysund,70.9963,24.6622,35.83,62,0,7.94,NO,1681507311
442,champawat,29.3333,80.1,59.45,29,79,5.82,IN,1681507311
443,vila velha,-20.3297,-40.2925,80.55,88,40,14.97,BR,1681507311
444,jacqueville,5.2052,-4.4146,82.26,84,100,12.95,CI,1681507311
445,manali,13.1667,80.2667,83.07,89,100,8.52,IN,1681507311
446,iki-burul,45.8208,44.6472,48.07,91,100,21.56,RU,1681507312
447,itarema,-2.9248,-39.9167,79.36,84,88,10.0,BR,1681507312
448,bud,39.447,-86.1758,81.05,50,47,7.25,US,1681507312
449,olavarria,-36.8927,-60.3225,57.58,39,97,4.25,AR,1681507312
450,mollendo,-17.0231,-72.0147,73.08,77,50,9.46,PE,1681507312
451,port-gentil,-0.7193,8.7815,78.76,94,40,4.61,GA,1681507312
452,leh,34.1667,77.5833,21.94,48,0,2.15,IN,1681507312
453,puerto madryn,-42.7692,-65.0385,65.8,37,98,10.96,AR,1681507252
454,cabedelo,-6.9811,-34.8339,81.27,79,100,12.24,BR,1681507313
455,olafsvik,64.8945,-23.7142,40.5,78,12,6.13,IS,1681507313
456,waipawa,-41.4122,175.5153,55.54,79,56,10.6,NZ,1681507313
457,dutlwe,-23.9833,23.9,68.22,29,1,10.51,BW,1681507313
458,canavieiras,-15.675,-38.9472,77.32,74,27,6.6,BR,1681507313
459,manokwari,-0.8667,134.0833,77.74,81,100,3.47,ID,1681507313
460,vila do maio,15.1333,-23.2167,75.99,82,26,12.01,CV,1681507313
461,nunoa,-14.48,-70.6411,43.54,90,100,3.18,PE,1681507313
462,kanye,-24.9667,25.3327,61.39,24,6,7.27,BW,1681507314
463,conde,-7.2597,-34.9075,80.06,83,40,9.22,BR,1681507314
464,diu,20.7141,70.9822,76.96,63,0,8.79,IN,1681507314
465,port augusta,-32.5,137.7667,62.24,78,100,10.22,AU,1681507161
466,secunda,-26.55,29.1667,52.3,62,43,5.21,ZA,1681507314
467,san ignacio,17.1561,-89.0714,100.54,37,20,6.91,BZ,1681507315
468,port keats,-14.25,129.55,79.93,84,100,6.15,AU,1681507315
469,ishigaki,24.3448,124.1572,75.33,100,75,6.91,JP,1681507315
470,kurilsk,45.2333,147.8833,31.93,77,9,5.86,RU,1681507315
471,quang ngai,15.1167,108.8,75.83,93,6,4.88,VN,1681507315
472,grantham,52.9115,-0.6418,44.78,95,100,4.61,GB,1681507315
473,pandan,14.0453,124.1694,77.4,88,89,3.8,PH,1681507315
474,broome,42.2506,-75.833,85.08,24,0,4.0,US,1681507315
475,gawler,-34.6,138.7333,60.31,97,100,9.48,AU,1681507316
476,soroti,1.7146,33.6111,68.58,77,53,1.48,UG,1681507316
477,srednekolymsk,67.45,153.6833,8.69,84,58,4.9,RU,1681507316
478,arcachon,44.5875,-1.0519,55.45,82,75,16.11,FR,1681507316
479,caranavi,-15.8167,-67.55,72.59,87,100,2.55,BO,1681507316
480,swan hill,-35.3378,143.5544,61.34,69,100,7.65,AU,1681507316
481,emba,48.8264,58.1442,47.12,90,100,7.0,KZ,1681507317
482,nacogdoches,31.6002,-94.6335,81.57,61,75,8.05,US,1681507317
483,tulun,54.5611,100.5792,31.96,65,100,4.99,RU,1681507317
484,dingle,10.9995,122.6711,76.28,86,9,1.57,PH,1681507317
485,carnarvon,-24.8667,113.6333,62.49,48,0,23.49,AU,1681507317
486,wewak,-3.5534,143.6268,78.42,86,100,3.91,PG,1681507317
487,bataipora,-22.2953,-53.2711,75.15,86,89,3.09,BR,1681507317
488,san angelo,31.4638,-100.437,91.62,12,0,12.66,US,1681507105
489,linxia,35.6003,103.2064,43.14,53,56,2.01,CN,1681507318
490,namibe,-15.1961,12.1522,76.48,75,0,3.2,AO,1681507318
491,yeppoon,-23.1333,150.7333,62.38,66,100,5.3,AU,1681507318
492,estelle,29.8458,-90.1067,82.99,52,40,11.5,US,1681507318
493,henties bay,-22.116,14.2845,59.7,85,32,4.97,NA,1681507318
494,shiyan,32.6475,110.7781,56.17,72,0,6.46,CN,1681507319
495,fort nelson,58.8053,-122.7002,49.59,29,75,4.61,CA,1681507319
496,amol,36.4696,52.3507,61.45,50,0,3.76,IR,1681507319
497,ponta delgada,37.7333,-25.6667,63.32,82,40,11.5,PT,1681507319
498,tuatapere,-46.1333,167.6833,55.0,76,0,3.96,NZ,1681507319
499,marinette,45.1,-87.6307,73.89,31,0,14.97,US,1681507081
500,astoria,46.1879,-123.8313,56.59,64,0,6.91,US,1681507320
501,batemans bay,-35.7167,150.1833,57.09,89,41,5.26,AU,1681507320
502,vestmanna,62.1564,-7.1664,43.72,87,100,12.66,FO,1681507320
503,verkhoshizhemye,58.011,49.1038,24.76,59,0,8.99,RU,1681507320
504,ugep,5.8086,8.0812,79.68,79,100,10.69,NG,1681507320
505,camacha,33.0833,-16.3333,60.22,67,40,11.5,PT,1681507321
506,souillac,-20.5167,57.5167,77.38,88,40,2.3,MU,1681507321
507,hazorasp,41.3194,61.0742,60.64,46,0,6.87,UZ,1681507321
508,nome,64.5011,-165.4064,10.17,66,75,20.71,US,1681507315
509,lata,40.1629,-8.3327,59.81,99,100,4.12,PT,1681507322
510,vila franca do campo,37.7167,-25.4333,63.01,83,97,8.32,PT,1681507322
511,itatinga,-23.1017,-48.6158,64.63,97,100,1.95,BR,1681507322
512,urengoy,65.9667,78.3667,-16.33,100,100,3.89,RU,1681507322
513,biak,-0.9131,122.8766,77.38,82,100,2.3,ID,1681507323
514,kawalu,-7.3817,108.2082,70.99,97,94,1.16,ID,1681507323
515,monkey bay,-14.0728,34.9201,75.4,80,75,5.86,MW,1681507324
516,gorahun,7.4661,-11.2375,79.11,82,94,4.29,SL,1681507324
517,raudeberg,61.9875,5.1352,43.95,73,100,6.49,NO,1681507324
518,marathon,44.9,-89.7668,81.64,23,0,17.27,US,1681507324
519,mandalgovi,45.7625,106.2708,31.86,25,100,7.61,MN,1681507325
520,puerto narino,-3.7703,-70.3831,83.62,76,100,1.7,CO,1681507325
521,tiznit,29.5833,-9.5,68.7,58,0,0.54,MA,1681507325
522,sedhiou,12.7081,-15.5569,86.77,39,7,8.66,SN,1681507326
523,te anau,-45.4167,167.7167,52.27,83,4,0.74,NZ,1681507326
524,hualmay,-11.0964,-77.6139,78.67,72,89,13.91,PE,1681507326
525,nalut,30.3333,10.85,63.09,43,13,16.73,LY,1681507326
526,mackay,-21.15,149.2,70.68,84,92,4.76,AU,1681507327
527,boa vista,2.8197,-60.6733,89.58,43,40,12.66,BR,1681507129
528,zhezkazgan,47.8043,67.7144,61.21,60,73,18.14,KZ,1681507327
529,puerto escondido,15.85,-97.0667,90.43,58,20,11.5,MX,1681507211
530,manchar,19.0,73.9333,78.58,46,99,1.23,IN,1681507328
531,awbari,26.5921,12.7805,73.56,11,0,4.59,LY,1681507328
532,yelandur,12.0667,77.0333,72.75,63,93,3.87,IN,1681507329
533,shingu,33.7333,135.9833,53.44,95,100,13.15,JP,1681507329
534,ixtapa,20.7,-105.2,81.63,57,75,13.8,MX,1681507329
535,uarini,-2.99,-65.1083,86.09,72,100,0.13,BR,1681507330
536,husavik,66.0449,-17.3389,36.05,97,100,1.61,IS,1681507330
537,changji,44.0167,87.3167,54.39,37,0,2.24,CN,1681507331
538,beloha,-25.1667,45.05,71.82,92,0,2.95,MG,1681507331
539,bandar-e lengeh,26.5579,54.8807,75.31,73,80,9.22,IR,1681507332
540,benicarlo,40.4165,0.4271,64.56,60,5,13.18,ES,1681507128
541,lluta,-16.0147,-72.0142,54.39,76,66,7.45,PE,1681507332
542,sinop,41.7711,34.8709,53.55,59,62,7.96,TR,1681507332
543,sobolevo,54.4299,31.8996,42.4,52,100,12.28,RU,1681507332
544,fare,-16.7,-151.0167,80.22,74,14,8.7,PF,1681507333
545,richards bay,-28.783,32.0377,70.95,55,100,20.11,ZA,1681507333
546,balabac,7.9868,117.0645,79.57,74,3,1.39,PH,1681507333
547,springbok,-29.6643,17.8865,57.52,37,0,9.51,ZA,1681507333
548,mayo,38.8876,-76.5119,82.2,65,0,12.66,US,1681507334
549,les cayes,18.2,-73.75,81.97,69,54,9.51,HT,1681507334
550,labuhan,-6.8844,112.2051,76.69,86,100,8.52,ID,1681507334
551,auki,-8.7676,160.7034,78.57,90,100,11.21,SB,1681507334
552,zhangye,38.9342,100.4517,50.45,24,91,5.1,CN,1681507334
553,solnechnyy,50.7214,136.6319,25.72,68,100,3.36,RU,1681507335
554,morant bay,17.8815,-76.4093,85.71,74,33,10.38,JM,1681507335
555,andapa,-14.65,49.65,69.42,98,72,1.28,MG,1681507335
556,brufut,13.3814,-16.7518,84.29,51,0,3.44,GM,1681507335
557,stranda,62.3096,6.9358,47.55,63,100,3.24,NO,1681507336
558,college,64.8569,-147.8028,33.75,52,40,0.0,US,1681507336
559,akyab,20.15,92.9,79.02,77,6,2.98,MM,1681507336
560,lyaskelya,61.7667,31.0167,23.99,91,7,7.9,RU,1681507336
561,mangan,27.5167,88.5333,64.83,58,52,13.02,IN,1681507154
562,rajapur,25.3833,81.15,89.42,17,100,4.14,IN,1681507337
563,abu zabad,12.35,29.25,81.77,12,56,9.37,SD,1681507337
564,lincoln,40.8,-96.667,84.16,45,40,7.0,US,1681507337
565,gurlan,41.8447,60.3919,60.87,44,17,7.61,UZ,1681507338
566,klaksvik,62.2266,-6.589,45.52,92,100,19.55,FO,1681507339
567,zajecar,43.9036,22.2641,51.04,67,67,3.22,RS,1681507339
568,sept-iles,50.2001,-66.3821,46.83,47,20,12.66,CA,1681507340
569,bojnurd,37.4747,57.329,42.75,87,0,4.61,IR,1681507340
570,okato,-39.2,173.8833,56.68,70,72,3.24,NZ,1681507341
571,zhigansk,66.7697,123.3711,-0.08,98,44,5.3,RU,1681507341
572,non sung,15.1801,102.2569,91.11,52,100,6.31,TH,1681507341
573,fengrun,39.8333,118.1167,47.8,13,0,3.33,CN,1681507342
574,egvekinot,66.3167,-179.1667,1.72,78,12,2.21,RU,1681507342
575,vanavara,60.34,102.2797,11.44,95,100,9.22,RU,1681507342
576,crailsheim,49.1344,10.0719,45.28,88,100,1.61,DE,1681507343
577,acajutla,13.5928,-89.8275,87.87,60,25,9.8,SV,1681507343
578,chapais,49.7834,-74.8492,42.58,65,79,3.51,CA,1681507343
579,nerchinskiy zavod,51.3088,119.61,29.37,81,100,2.3,RU,1681507343
580,cairns,-16.9167,145.7667,78.75,83,100,1.14,AU,1681507160
581,sirjan,29.452,55.6814,60.58,40,60,4.34,IR,1681507344
582,nabire,-3.3667,135.4833,75.6,89,76,3.15,ID,1681507344
583,fuyang,32.9,115.8167,54.55,93,0,4.63,CN,1681507344
584,lishu,43.3047,124.3278,43.47,35,0,6.02,CN,1681507344
585,isaka,-3.9,32.9333,66.96,90,100,4.34,TZ,1681507345
586,korocha,50.8107,37.1953,39.92,69,100,11.72,RU,1681507345
587,olinda,-8.0089,-34.8553,82.13,65,40,6.91,BR,1681507345
588,dali,25.7,100.1833,55.08,47,2,2.59,CN,1681507345
589,evinayong,1.4368,10.5512,66.78,99,100,1.28,GQ,1681507092
590,warrenton,-28.114,24.8475,57.02,33,8,11.34,ZA,1681507288
591,santander,43.4647,-3.8044,57.45,87,75,18.41,ES,1681507346
592,ouadda,8.0777,22.4007,76.86,51,69,1.07,CF,1681507346
593,chambas,22.1928,-78.9136,86.65,57,100,13.18,CU,1681507347
594,songjianghe,42.1859,127.479,41.47,87,100,7.02,CN,1681507347
595,porto novo,6.4965,2.6036,85.82,80,100,10.54,BJ,1681507347
596,honolulu,21.3069,-157.8583,84.02,66,40,11.5,US,1681507341
597,shestakovo,56.4915,103.96,32.09,64,100,8.9,RU,1681507347
598,araouane,18.9048,-3.5265,84.49,9,5,11.05,ML,1681507348
